City,temp,Lat,Long,humidity,Cloud Cover,Wind Speed
Pedernales,23.51,0.07,-80.05,89,6,1.99
Kapaa,26.48,22.08,-159.32,69,75,8.2
Macenta,17.54,8.55,-9.47,34,46,0.9
Enugu,26.0,6.45,7.5,61,96,2.1
Sterling,5.96,39.0,-77.4,41,1,3.6
Sola,17.57,-3.17,33.8,92,92,2.27
Sarangani,26.55,5.4,125.46,87,100,11.36
Bluff,28.64,-23.58,149.07,56,60,6.13
Pospelikha,-14.07,51.99,81.83,83,75,1.06
Vila Velha,27.88,-3.71,-38.6,74,20,2.1
Shingu,8.0,33.72,135.99,52,75,1.0
Rikitea,24.95,-23.12,-134.97,74,95,5.43
Qaanaaq,-25.48,77.48,-69.36,62,45,4.83
Biak,27.05,-0.91,122.88,77,100,3.83
Torbay,-3.24,47.66,-52.73,86,90,3.6
Saint George,1.53,39.45,22.34,55,20,2.1
San Quintin,22.23,17.54,120.52,76,2,1.84
Mahebourg,25.0,-20.41,57.7,100,40,0.76
Hilo,23.57,19.71,-155.08,65,20,1.5
Katsuura,6.44,33.93,134.5,75,90,1.5
Narsaq,-19.0,60.91,-46.05,33,5,3.1
Buraydah,11.0,26.33,43.97,53,40,3.1
Ferkessedougou,22.6,9.6,-5.2,21,4,1.55
Chuy,20.2,-33.69,-53.46,74,35,2.73
East London,22.97,-33.02,27.91,75,100,3.36
Saint-Philippe,-8.24,45.36,-73.48,85,75,2.1
Hithadhoo,28.51,-0.6,73.08,76,100,5.2
Trincomalee,22.96,8.58,81.23,95,65,1.17
Port Alfred,20.0,-33.59,26.89,97,100,4.04
Scarborough,6.22,54.28,-0.41,87,2,5.7
Mataura,13.33,-46.19,168.86,72,88,4.47
Leningradskiy,-23.25,69.38,178.42,77,0,4.76
Nara,5.45,34.68,135.8,75,75,1.0
Diu,23.06,20.71,70.98,82,0,2.95
Denia,7.3,38.84,0.11,90,0,0.89
Okitipupa,22.59,6.5,4.78,78,0,0.61
Hobart,18.66,-42.88,147.33,72,75,5.1
Arraial do Cabo,26.0,-22.97,-42.02,88,75,2.1
Tongren,7.36,27.72,109.18,96,32,1.13
Soligalich,-7.16,59.08,42.29,93,100,2.94
Tasiilaq,-5.79,65.61,-37.64,93,100,14.7
Portland,-5.37,43.66,-70.25,68,90,2.1
Padang,20.67,-0.92,100.36,88,91,2.22
Petropavlovsk-Kamchatskiy,-3.0,53.05,158.65,49,100,8.0
Vaini,17.96,15.34,74.49,97,4,2.26
Shahrud,-1.2,36.42,54.97,76,0,0.5
Busselton,19.32,-33.64,115.35,27,0,3.28
Killybegs,7.53,54.63,-8.45,77,44,8.15
Mount Isa,33.0,-20.73,139.49,43,100,4.1
Ushuaia,12.0,-54.81,-68.31,58,75,2.6
Tarata,23.0,-17.47,-70.03,60,100,4.6
Cidreira,25.04,-30.17,-50.22,83,57,5.3
Victoria,26.26,5.28,115.24,83,75,4.83
Port Elizabeth,6.11,39.31,-74.98,52,1,2.1
Natal,27.0,-5.81,-35.21,78,20,5.1
Butaritari,29.37,3.07,172.79,76,100,8.16
Kodinsk,-12.38,58.6,99.18,96,35,2.44
Atuona,26.97,-9.8,-139.03,70,0,5.51
Shizunai,-3.66,42.33,142.37,61,87,1.15
Klaksvik,7.0,62.23,-6.59,56,23,8.2
Rafaela,23.33,-31.25,-61.49,34,0,1.79
Luangwa,23.52,-15.62,30.4,88,89,0.68
Tiksi,-19.06,71.64,128.87,85,100,7.41
Oranjemund,15.21,-28.55,16.43,90,81,3.96
Hermanus,18.01,-34.42,19.24,79,98,2.68
Hay River,-25.0,60.82,-115.79,75,90,4.1
Nikolskoye,1.29,59.7,30.79,96,90,2.0
Albany,-0.36,42.65,-73.75,55,75,2.6
Vila,-0.25,45.18,8.4,100,0,1.0
Lompoc,20.76,34.64,-120.46,59,1,3.1
San Andres,25.43,13.32,122.68,83,26,4.53
Clyde River,-28.0,70.47,-68.59,75,75,8.7
Jamestown,23.62,-33.21,138.6,41,0,3.58
Thompson,-19.0,55.74,-97.86,84,90,4.1
Kaitangata,13.89,-46.28,169.85,53,0,8.49
Grindavik,1.47,63.84,-22.43,69,75,3.6
Victor Harbor,24.91,-35.55,138.62,43,0,2.1
Sumbe,25.08,-11.2,13.84,85,100,1.63
Iqaluit,-25.0,63.75,-68.52,57,40,9.3
Caravelas,23.69,-17.73,-39.27,89,100,3.39
Wamba,19.03,2.14,27.99,81,98,0.5
New Norfolk,19.08,-42.78,147.06,72,75,5.1
Puerto del Rosario,16.44,28.5,-13.86,67,15,4.6
Geraldton,-12.0,49.72,-86.95,78,75,2.1
La Cruz,21.21,23.92,-106.89,66,64,3.3
Dikson,-11.04,73.51,80.55,95,100,4.7
Berlevag,-2.0,70.86,29.09,86,40,5.1
Upington,27.0,-28.46,21.24,30,67,3.1
Cape Town,19.28,-33.93,18.42,68,99,7.7
Acapulco,29.0,16.86,-99.88,66,5,2.6
Barrow,15.48,-38.31,-60.23,62,32,3.57
Muroto,9.0,33.37,134.14,87,75,4.1
Camacha,16.57,33.08,-16.33,72,40,3.6
Rorvik,7.22,64.86,11.24,82,96,0.89
Lavrentiya,-23.18,65.58,-170.99,89,53,0.68
Batagay-Alyta,-25.86,67.8,130.41,88,100,2.14
Gagnoa,20.68,6.13,-5.95,58,0,1.14
Beringovskiy,-24.02,63.05,179.32,86,9,5.03
Punta Arenas,13.63,-53.16,-70.91,71,75,4.1
Puerto Escondido,29.0,15.86,-97.07,66,5,3.1
Mar del Plata,16.65,-46.43,-67.52,59,67,3.3
Avarua,27.0,-21.21,-159.78,83,40,1.5
Nerchinskiy Zavod,-21.07,51.31,119.61,98,12,0.99
Luderitz,18.0,-26.65,15.16,72,100,5.7
Cabra,3.21,37.47,-4.43,93,0,0.5
Sioux Lookout,-7.84,50.1,-91.92,78,20,2.6
Churapcha,-17.44,62.0,132.43,97,100,2.01
Vaitape,27.96,-16.52,-151.75,78,68,6.71
Waipawa,13.33,-39.94,176.59,80,36,2.24
Bambous Virieux,25.0,-20.34,57.76,100,40,2.84
Castro,13.0,-42.48,-73.76,87,90,4.6
Xining,-9.83,36.62,101.77,89,90,1.5
Pran Buri,21.0,12.39,99.9,83,0,1.0
Upernavik,-20.19,72.79,-56.15,84,100,3.0
Puerto Ayora,27.18,-0.74,-90.35,58,75,7.2
San Vicente,28.0,-0.59,-80.41,74,75,2.1
Khatanga,-13.82,71.98,102.47,93,99,5.82
Murray Bridge,25.33,-35.12,139.28,56,0,0.89
Waynesville,8.0,37.83,-92.2,31,1,3.1
Santa Maria,22.7,-16.02,-48.01,78,40,3.1
Provideniya,-24.02,64.42,-173.23,95,83,0.55
Langham,-11.0,52.36,-106.96,61,20,8.2
Hami,-8.5,42.84,93.51,52,0,0.38
Zavetnoye,-0.48,47.12,43.89,60,95,4.86
Meadow Lake,-18.0,54.13,-108.44,64,20,5.1
Longyearbyen,-12.0,78.22,15.63,55,40,6.2
Nantucket,1.4,41.28,-70.1,93,90,3.1
Bredasdorp,17.37,-34.53,20.04,77,94,1.5
Kolokani,16.75,13.58,-8.03,19,15,4.26
Naze,25.0,5.43,7.07,78,100,1.1
Nizhniy Odes,-14.31,63.64,54.86,93,99,2.72
Porto Walter,26.66,-8.27,-72.74,66,44,1.57
Kendari,26.34,-3.99,122.52,90,100,0.57
Tuktoyaktuk,-33.0,69.44,-133.03,74,75,2.6
Ariano Irpino,2.92,41.15,15.09,74,5,2.1
Ancud,13.0,-41.87,-73.83,87,90,4.6
Feijo,30.61,-3.63,-79.92,66,40,4.1
Tullahoma,10.46,35.36,-86.21,57,75,1.71
Santiago del Estero,24.03,-27.8,-64.26,50,17,2.17
La Palma,20.66,5.36,-74.39,96,72,1.37
Roxas,26.05,10.32,119.34,82,54,3.28
Chepareria,20.38,1.32,35.2,66,70,1.91
West Wendover,4.0,40.74,-114.07,55,1,1.05
Great Yarmouth,6.21,52.61,1.73,87,34,5.1
Whitecourt,-7.0,54.14,-115.68,73,20,0.88
Golden,1.17,39.76,-105.22,23,1,1.5
Coihaique,13.0,-45.58,-72.07,71,90,2.6
Champerico,28.0,16.38,-93.6,42,5,1.88
Lincoln,5.79,53.23,-0.54,81,0,5.7
Kamenka,-4.44,48.03,28.7,82,0,1.5
Lons-le-Saunier,0.35,46.67,5.56,92,17,1.5
Guerrero Negro,22.46,27.97,-114.04,28,0,1.78
Mehamn,-2.0,71.03,27.85,86,40,5.1
Kavaratti,27.01,10.57,72.64,72,100,2.54
Ambilobe,24.22,-13.19,49.05,88,46,1.49
Cherskiy,-26.8,68.75,161.3,71,0,2.67
Asyut,8.0,27.18,31.19,75,0,5.1
Avera,12.87,33.19,-82.53,62,1,2.77
Ilulissat,-20.0,69.22,-51.1,53,100,5.7
Chokurdakh,-30.23,70.62,147.9,99,14,1.24
Saskylakh,-17.47,71.97,114.09,93,94,3.54
Westport,3.46,41.14,-73.36,56,1,3.1
Ribeira Grande,16.4,38.52,-28.7,94,97,7.87
Hunterville,17.89,-39.94,175.57,46,1,3.58
Scottsbluff,2.3,41.87,-103.67,34,1,5.1
Sorong,24.33,-0.86,131.25,97,100,1.09
Ketchikan,0.55,55.34,-131.65,100,40,2.6
Nyuksenitsa,-8.55,60.41,44.24,94,100,3.37
Nemuro,-1.17,43.32,145.57,72,10,9.72
Aykhal,-12.0,65.95,111.51,92,45,2.0
Angoche,25.54,-16.23,39.91,89,100,2.4
Isangel,29.0,-19.55,169.27,70,75,4.81
Kodiak,3.76,39.95,-94.76,55,20,2.1
Ukiah,12.03,39.15,-123.21,41,1,1.2
Port Hedland,31.0,-20.31,118.58,48,90,5.1
Fare,27.86,-16.7,-151.02,78,73,6.17
Khasan,-5.05,42.43,130.64,94,100,1.92
Touros,27.0,-5.2,-35.46,78,20,5.1
Ponta do Sol,20.32,-20.63,-46.0,92,9,1.11
Rock Springs,-4.0,41.59,-109.2,62,1,7.7
Bundaberg,28.77,-24.87,152.35,54,40,5.7
Matagami,17.0,9.67,8.4,36,0,2.1
Mount Gambier,19.0,-37.83,140.78,63,21,5.1
Saint-Augustin,-8.5,45.63,-73.98,85,75,2.1
Purpe,-14.83,64.48,76.69,93,100,5.02
Volkhovskiy,0.1,58.58,31.32,94,99,3.02
Saldanha,2.71,41.42,-6.55,81,45,1.21
Russkiy Kameshkir,-6.08,52.86,46.09,96,89,2.01
Lagoa,9.87,37.14,-8.45,87,0,2.6
Kaduy,-3.65,59.2,37.15,93,95,2.62
Paamiut,-18.04,61.99,-49.67,78,46,6.83
Pevek,-22.74,69.7,170.27,69,0,2.32
Ponta Delgada,18.0,37.73,-25.67,100,75,4.1
Biltine,18.05,14.53,20.93,25,1,2.93
Talnakh,-10.0,69.49,88.39,85,40,8.0
Itoman,20.89,26.12,127.67,68,75,4.6
Emerald,27.57,-23.53,148.16,65,40,5.1
Shiyan,2.02,32.65,110.78,99,99,2.28
Oum Hadjer,19.29,13.3,19.7,21,0,4.59
Atar,10.97,20.52,-13.05,13,59,3.68
Sorland,6.94,67.67,12.69,84,100,13.64
Abbeville,7.18,50.11,1.83,87,20,3.6
Beloha,22.77,-25.17,45.06,86,14,5.22
Ferme-Neuve,-6.3,46.7,-75.45,94,100,2.0
Los Llanos de Aridane,19.0,28.66,-17.92,59,75,8.2
Ugoofaaru,28.17,5.67,73.0,74,74,8.71
Broome,6.06,52.47,1.45,87,34,5.1
Port Hardy,5.0,50.7,-127.42,86,75,4.6
Kedougou,18.14,12.56,-12.19,16,9,0.67
Lakatoro,27.88,-16.11,167.42,79,100,6.94
Micheweni,28.41,-4.97,39.83,79,11,5.38
Port Blair,26.51,11.67,92.75,84,0,6.98
Alofi,30.0,-19.06,-169.92,70,75,2.1
Daru,29.43,-9.07,143.21,75,97,1.49
Humaita,24.83,-24.93,-65.37,60,40,4.6
Sao Joao da Barra,25.43,-21.64,-41.05,89,100,5.44
Olinda,17.99,-37.84,145.39,88,90,4.6
Pashiya,-17.17,58.43,58.26,98,0,0.67
Yulara,26.0,-25.24,130.99,57,100,7.2
Esperance,25.0,-33.86,121.89,27,0,5.7
Saint-Louis,19.0,16.03,-16.5,29,81,2.1
Gigmoto,26.95,13.78,124.39,81,84,11.06
Georgetown,26.47,6.8,-58.16,78,20,2.1
Yellowknife,-29.34,62.45,-114.38,74,75,3.1
Hanyang,4.44,32.14,105.51,75,19,1.77
Tual,28.12,-5.67,132.75,77,100,4.89
Norman Wells,-40.0,65.28,-126.83,72,75,1.0
Gondal,18.02,21.96,70.8,56,0,2.37
Presidencia Roque Saenz Pena,26.92,-26.79,-60.44,52,73,5.04
Eskil,3.95,38.4,33.41,79,100,2.18
Salalah,24.0,17.01,54.1,83,40,2.1
Souillac,4.9,45.6,-0.6,87,90,1.0
Zhezkazgan,-13.31,47.8,67.71,99,88,1.33
Malatya,4.0,38.35,38.32,86,75,3.1
Lebu,12.0,8.96,38.73,87,20,2.1
Airai,24.81,-8.93,125.41,63,99,1.48
Ati,20.11,13.21,18.34,20,0,4.33
Half Moon Bay,14.91,37.46,-122.43,47,1,1.5
Dinghai,16.0,26.28,119.79,87,75,1.0
Orsha,-2.35,54.51,30.43,96,95,3.9
Ode,26.0,8.45,4.32,61,6,1.5
Iraray,25.55,8.99,118.05,86,50,1.73
Along,6.24,28.17,94.8,89,89,1.98
Tiarei,30.76,-17.53,-149.33,70,40,2.1
Karachi,14.0,24.87,67.03,71,2,3.6
Pascagoula,15.11,30.37,-88.56,51,1,2.1
Gra Liyia,8.69,35.02,25.68,87,75,14.4
Lovozero,-12.8,68.01,35.02,86,0,1.51
Sechura,22.15,-5.56,-80.82,88,20,6.74
Hamilton,1.88,43.26,-79.87,74,40,6.7
Sistranda,2.88,63.73,8.83,93,75,3.1
Male,-4.85,50.74,33.7,88,10,0.96
Qinhuangdao,-2.02,39.94,119.59,54,100,2.76
Meulaboh,26.96,4.14,96.13,80,79,3.61
Kulhudhuffushi,27.84,6.62,73.07,79,86,6.09
Solnechnyy,-16.86,50.72,136.64,75,0,0.74
Houston,21.29,29.76,-95.37,46,20,2.1
Bon Accord,-10.29,53.84,-113.41,61,20,1.0
Fairbanks,-35.61,64.84,-147.72,73,20,0.45
Nishihara,6.25,35.74,139.53,65,90,3.35
Severo-Kurilsk,-4.13,50.68,156.12,74,100,7.45
Obera,24.43,-27.49,-55.12,60,47,1.03
Pangody,-17.82,65.85,74.49,91,2,5.89
Saint Anthony,-1.96,43.97,-111.68,85,90,1.5
Sidi Ali,7.61,36.1,0.42,86,0,0.44
Kamaishi,-5.0,39.28,141.86,85,75,3.6
Rio Cuarto,21.0,-33.13,-64.35,52,0,1.0
Bereda,3.78,43.27,-7.54,93,20,2.6
Itaqui,23.1,-29.13,-56.55,77,85,2.06
Vostok,-12.09,46.45,135.83,79,89,1.21
Tabou,21.96,4.42,-7.36,70,0,1.25
Belle Glade,18.76,26.68,-80.67,42,90,4.1
Henties Bay,17.22,-22.12,14.28,89,29,0.89
Bilibino,-27.86,68.06,166.44,93,0,1.2
La Plata,23.66,-34.92,-57.95,49,20,4.1
Lianyuan,6.7,27.69,111.67,93,100,1.86
Veraval,8.07,49.65,0.71,93,75,5.1
Muros,5.76,42.77,-9.06,93,20,1.5
Namibe,21.96,-15.19,12.15,85,99,3.75
Nha Trang,24.0,12.24,109.19,83,40,3.1
Nanortalik,-9.7,60.14,-45.24,71,0,23.29
Otavi,18.23,-19.64,17.34,87,74,0.72
Kalmunai,27.65,7.42,81.82,76,40,6.37
Hofn,4.68,64.25,-15.21,62,32,14.21
Tahara,6.95,34.64,137.18,60,75,2.1
Tucuman,13.85,-17.17,-70.89,83,72,3.04
Darhan,-19.89,49.49,105.92,88,22,1.94
Fuerte Olimpo,28.0,-21.04,-57.87,67,34,2.66
Dalmatovo,-12.02,56.26,62.94,93,50,2.4
Roald,6.45,62.58,6.12,75,96,8.7
Diego de Almagro,18.19,-26.39,-70.05,45,0,2.13
Bianzhuang,-13.36,39.44,112.12,84,100,3.55
Swellendam,16.0,-34.02,20.44,77,94,1.5
University Park,16.0,32.86,-96.79,33,75,3.1
Hendersonville,9.1,36.3,-86.62,45,20,2.27
Suntar,-7.09,62.16,117.65,93,100,4.83
Adrar,8.0,27.87,-0.29,28,39,6.7
Inhambane,26.35,-23.87,35.38,77,29,5.43
Rio Gallegos,16.0,-51.62,-69.22,67,90,2.1
Anadyr,-32.0,64.73,177.51,67,0,3.0
Bambanglipuro,25.48,-7.95,110.28,81,96,1.15
Fortuna,11.9,40.6,-124.16,66,1,2.6
Port Lincoln,20.78,-34.72,135.86,60,0,3.96
Richards Bay,25.37,-28.77,32.06,84,100,8.3
Huarmey,20.69,-10.07,-78.15,80,39,2.15
Deputatskiy,-27.75,69.3,139.9,77,5,0.5
Wajima,4.0,37.4,136.9,65,75,1.5
Marinette,-0.46,45.1,-87.63,50,1,1.5
Yarmouth,-4.02,43.84,-66.12,79,90,3.1
Wilmington Island,13.5,32.0,-80.97,71,1,1.5
Maragogi,26.8,-9.01,-35.22,77,0,6.79
Mayo,-39.0,63.59,-135.9,72,20,1.0
Bubaque,25.74,11.28,-15.83,54,71,4.33
Manicore,27.77,-5.81,-61.3,71,98,0.91
Vao,2.49,59.1,26.19,97,100,3.38
Vuktyl,-16.8,63.86,57.31,95,100,4.22
Lasa,12.43,34.92,32.53,76,75,9.3
Thyboron,4.73,56.7,8.21,91,100,3.13
Havre-Saint-Pierre,-20.0,50.23,-63.6,70,1,2.6
The Valley,25.45,18.22,-63.06,69,20,2.6
Swan Hill,23.33,-35.34,143.56,58,0,1.34
Asmara,15.77,15.34,38.93,89,66,0.99
Sitka,8.33,37.17,-99.65,32,0,4.47
Beatrice,4.06,40.27,-96.75,69,1,4.1
Dumas,23.57,21.09,72.71,67,0,2.62
Manresa,5.74,41.73,1.83,93,0,1.5
Lucea,26.53,18.44,-78.17,74,75,4.6
Elizabeth City,7.77,36.3,-76.22,61,1,2.6
Abyek,-2.0,36.04,50.53,86,0,2.1
Saint-Joseph,6.45,43.56,6.97,93,75,1.0
Sal Rei,20.0,16.18,-22.92,60,77,8.2
Sangueya,21.97,10.7,-14.37,72,32,1.92
San Pedro,19.7,-33.68,-59.66,56,7,0.89
Saharanpur,12.1,29.96,77.54,94,100,1.37
Carlsbad,-2.77,50.23,12.87,100,0,1.0
Cabinda,28.05,-5.56,12.19,81,100,4.21
San Patricio,26.13,-26.98,-56.83,62,70,1.34
Ulaanbaatar,-27.0,47.92,106.92,75,40,1.0
Raudeberg,6.48,61.99,5.14,93,100,12.9
Sao Filipe,20.81,14.9,-24.5,62,90,8.83
Manadhoo,28.29,5.77,73.38,75,97,8.67
Tuatapere,13.33,-46.13,167.69,74,98,4.47
Aljezur,10.29,37.31,-8.8,91,0,2.68
Sarai Naurang,7.73,32.83,70.78,81,100,2.08
Kutum,14.87,14.2,24.66,29,30,1.8
Ligayan,27.46,4.65,119.47,81,100,5.05
Badou,23.22,7.58,0.61,37,61,1.12
Santa Lucia,2.51,41.98,12.66,59,0,2.6
Bulgan,-19.03,48.81,103.53,75,0,1.59
Gat,19.0,14.69,-16.54,63,66,5.1
Chapais,-14.0,49.78,-74.86,84,90,4.1
Christchurch,15.76,-43.53,172.64,58,54,12.3
Vanavara,-12.98,60.35,102.28,97,100,3.04
Kenai,-17.88,60.55,-151.26,64,1,2.1
Clonakilty,8.82,51.62,-8.87,93,75,6.7
Montepuez,22.54,-13.13,39.0,97,94,2.46
Khani,10.0,41.96,42.96,43,44,12.3
Lebanon,4.54,40.34,-76.42,33,1,3.6
Taltal,17.14,-25.41,-70.49,82,0,1.15
Semporna,24.0,4.48,118.61,94,75,1.5
Paciran,26.42,-6.9,112.33,86,98,2.51
Cabo San Lucas,23.9,22.89,-109.91,53,5,5.1
Moba,25.35,-7.04,29.77,62,79,0.95
Flinders,24.09,-34.58,150.85,69,100,1.5
Palana,-14.85,59.08,159.95,76,0,1.66
Dorado,23.46,18.46,-66.27,83,40,2.1
Bethel,-26.98,60.79,-161.76,75,1,3.1
Lokosovo,-7.79,61.13,74.84,90,90,5.03
Vardo,4.51,39.62,-77.74,33,1,3.1
Seoul,4.88,37.57,126.98,93,90,1.5
Faanui,27.96,-16.48,-151.75,78,68,6.71
Betafo,16.45,-19.84,46.86,96,100,0.88
Coquimbo,21.0,-29.95,-71.34,56,0,3.6
Goundam,16.79,16.42,-3.66,18,1,4.27
Soller,3.93,50.73,6.56,89,75,3.6
Dogondoutchi,21.98,13.64,4.03,25,30,3.96
Boo,24.58,7.44,8.9,26,8,2.72
Karratha,29.93,-20.74,116.85,71,100,2.87
Hervey Bay,28.79,-25.3,152.85,54,40,5.7
Amapa,21.5,15.09,-87.97,83,75,3.1
Namatanai,29.72,-3.66,152.44,71,86,2.75
Dingle,24.53,11.0,122.67,90,46,4.39
Dabhol,25.72,17.6,73.17,65,21,1.39
Poli,22.11,8.48,13.24,27,0,2.14
Kaeo,21.07,-35.1,173.78,59,66,3.13
Conceicao do Araguaia,21.75,-8.26,-49.26,95,100,1.03
Neuquen,24.0,-38.95,-68.06,27,0,7.2
Vallenar,16.34,-28.58,-70.76,74,0,2.62
Filadelfia,26.9,-22.35,-60.04,77,79,2.78
Alice Springs,25.0,-23.7,133.88,47,96,3.6
Bonthe,24.82,7.53,-12.5,74,2,3.14
Praia da Vitoria,18.0,38.73,-27.07,88,40,7.91
Belmonte,3.66,40.36,-7.35,23,21,1.34
Kruisfontein,17.99,-34.0,24.73,90,100,2.43
Codrington,28.36,-28.95,153.24,54,40,3.6
Nouadhibou,16.0,20.93,-17.03,72,100,8.2
Maniitsoq,-18.36,65.42,-52.9,98,100,5.23
Sur,21.24,22.57,59.53,84,0,4.09
Port Augusta,24.04,-32.49,137.76,60,0,3.1
Salitral,22.35,9.79,-84.12,64,20,7.7
Margate,19.08,-43.03,147.26,72,75,5.1
Aklavik,-35.85,68.22,-135.01,73,20,2.6
Kaka,2.03,37.35,59.62,83,1,1.41
Vanimo,28.15,-2.67,141.3,78,98,3.12
Surskoye,-6.95,54.48,46.71,96,100,1.1
Sabha,6.96,27.03,14.43,60,0,3.97
Mogadishu,27.27,2.04,45.34,84,43,9.73
Dabat,13.78,12.98,37.77,65,74,2.71
Manzil Salim,0.0,35.86,8.48,93,0,1.0
Werda,22.5,-25.27,23.28,65,100,4.03
Nuevo Progreso,22.96,26.05,-97.95,43,40,4.6
Payo,20.93,-3.75,103.64,94,80,0.81
Wanaka,10.83,-44.7,169.14,55,74,2.66
Hearst,-15.58,49.69,-83.67,93,99,3.23
Vestmannaeyjar,5.19,63.44,-20.27,67,85,11.25
Bati,18.45,11.19,40.02,85,77,1.54
Ahipara,24.44,-35.17,173.16,60,85,1.34
Amga,-15.28,60.89,131.98,97,95,1.43
Robe,9.24,7.12,40.01,84,22,1.79
Hobyo,25.64,5.35,48.53,82,58,5.96
Saint-Paul,3.12,45.22,1.9,100,96,1.0
Chumikan,-13.41,54.72,135.31,72,11,3.84
Umm Kaddadah,16.64,13.6,26.69,22,61,4.32
Diapaga,21.97,12.07,1.79,30,25,3.03
Kieta,30.11,-6.22,155.63,67,39,2.6
Pundaguitan,26.2,6.37,126.17,85,99,3.26
Lipari,8.35,38.47,14.95,45,40,2.6
Sovetskiy,-9.07,56.76,48.47,97,84,0.68
Balkanabat,4.45,39.51,54.36,72,90,2.58
Konevo,3.89,41.67,25.61,50,100,3.58
Sendafa,12.0,9.16,39.02,87,20,2.1
Saint-Francois,0.54,46.42,3.91,92,49,0.5
Cocachacra,20.18,-17.09,-71.76,88,13,2.81
Samana,29.43,0.12,-76.97,70,20,1.5
Faya,14.0,18.39,42.45,71,0,3.6
Comodoro Rivadavia,17.0,-45.87,-67.48,63,44,5.1
Belle Fourche,-1.62,44.67,-103.85,71,1,5.1
Piacabucu,26.09,-10.41,-36.43,80,0,5.23
Salamiyah,9.11,35.01,37.05,54,0,7.77
Key West,-2.48,47.93,-96.78,85,40,4.6
Kathu,21.67,-27.7,23.05,65,100,0.89
Normandin,-12.0,48.84,-72.53,85,90,1.44
Zapodeni,-6.37,46.75,27.65,92,16,1.5
Coahuayana,26.48,18.62,-100.35,31,11,0.54
Anito,27.33,12.45,125.29,79,80,8.87
Bahia de Caraquez,28.0,-0.6,-80.42,74,75,2.1
Carnarvon,18.84,-30.97,22.13,68,90,5.82
Pingliang,-6.43,35.54,106.68,85,100,0.82
Tessalit,12.7,20.2,1.01,21,43,5.05
Baiyin,-6.64,36.55,104.13,85,40,1.0
Shache,-4.69,38.42,77.24,59,100,1.51
Amahai,27.85,-3.31,129.0,70,100,2.26
Surt,10.55,31.21,16.59,62,92,5.68
Pacific Grove,15.06,36.62,-121.92,51,1,2.1
Bayir,9.0,37.27,28.22,87,75,4.1
Igarka,-13.17,67.47,86.57,93,100,3.47
Akdepe,-5.01,42.05,59.39,79,90,1.0
Mushie,25.11,-3.02,16.92,70,90,0.81
Sayyan,10.95,15.17,44.32,60,0,1.0
Selma,14.5,32.41,-87.02,67,16,1.67
Ribnica,-4.35,45.74,14.73,92,0,0.5
Marienburg,0.85,52.12,9.98,80,32,2.1
Bikin,-13.56,46.82,134.25,86,96,0.5
Juan Lacaze,23.78,-34.43,-57.44,38,40,7.7
Kem,22.18,2.68,33.77,53,13,1.66
Altagracia de Orituco,19.06,9.86,-66.38,98,2,1.57
York,4.56,39.96,-76.73,38,1,2.6
Methven,16.02,-43.63,171.65,47,95,0.45
Goderich,0.62,43.74,-81.71,71,40,8.05
Tapel,25.07,13.08,123.3,87,100,4.5
Ayan,-9.42,38.23,44.7,64,0,3.04
Necochea,17.22,-38.55,-58.74,70,0,4.47
Ulladulla,25.0,-35.36,150.48,69,55,1.5
Las Palmas,25.59,9.27,-75.33,82,46,4.57
Sobolevo,-3.77,54.43,31.9,96,93,3.44
Lalpur,6.29,34.24,71.05,93,75,2.1
Santa Cruz,23.92,-6.22,-36.02,81,86,2.36
Havelock,8.31,34.88,-76.9,70,5,2.1
Buin,24.52,-33.73,-70.74,38,11,3.6
Sanandaj,-5.39,35.31,47.0,74,0,1.2
Komsomolskiy,-11.85,67.55,63.78,92,100,8.28
Bathsheba,26.0,13.22,-59.52,69,20,6.7
Dharchula,-1.29,29.85,80.53,98,100,0.4
Mangai,23.24,-4.07,19.59,74,100,0.45
Bure,19.59,10.52,10.33,34,0,3.4
Yerbogachen,-9.06,61.28,108.01,92,100,4.67
Baruun-Urt,-16.92,46.68,113.28,78,0,2.95
Machico,15.02,32.7,-16.77,63,20,6.2
Vila Franca do Campo,18.0,37.72,-25.43,93,75,4.1
Artyom,-8.0,43.36,132.19,78,75,3.0
Jashpurnagar,10.41,22.88,84.14,48,0,1.85
Coswig,-0.37,51.13,13.58,72,0,2.1
Gamba,-12.86,28.28,88.52,38,67,0.23
Tambovka,-1.85,47.32,47.38,74,98,3.03
Severomuysk,-21.46,56.17,113.57,61,0,1.22
Prokopyevsk,-12.54,53.89,86.74,84,7,1.32
Ucar,-1.0,40.51,47.65,92,40,1.04
Kahului,25.36,20.89,-156.47,48,20,8.2
Nyurba,-8.25,63.29,118.35,93,100,3.79
Umea,2.12,63.83,20.26,100,90,4.6
Broken Hill,24.0,-31.97,141.45,47,0,7.7
Tereze,0.65,43.94,42.44,86,90,8.0
Hasaki,2.44,35.73,140.83,74,75,2.1
Verkh-Usugli,-20.23,52.7,115.17,88,0,0.91
Hammerfest,2.0,70.66,23.68,69,90,8.7
Lisakovsk,-12.97,52.55,62.49,96,93,1.61
Eau Claire,-2.22,44.81,-91.5,68,1,3.1
Ikungi,16.5,-5.13,34.77,90,34,0.94
Sikeston,6.75,36.88,-89.59,56,1,2.1
ChengDe,-10.95,40.97,117.93,81,100,1.75
Barcelos,27.05,-0.97,-62.93,71,0,0.96
Irece,21.12,-11.3,-41.86,94,100,2.37
Portree,8.11,57.41,-6.19,86,15,7.15
San Juan,27.8,-31.54,-68.53,17,0,4.72
Itarema,25.21,-2.92,-39.92,86,52,1.8
Panzhihua,2.33,26.59,101.72,68,51,0.44
Ismailia,13.38,30.6,32.27,45,0,8.59
Altay,-12.88,47.83,88.13,50,4,2.07
Kavieng,29.29,-2.57,150.8,69,75,1.29
Marathon,-11.0,48.72,-86.38,78,40,2.1
Udachnyy,-12.0,66.42,112.4,92,43,2.0
Jiutai,-9.0,44.15,125.84,85,90,3.0
Havoysund,2.0,71.0,24.66,69,100,8.7
Kiunga,29.16,-6.12,141.3,76,96,0.32
Palmeiras de Goias,21.91,-16.8,-49.93,93,17,2.82
Bosaso,25.75,11.28,49.18,74,57,2.95
Sault Sainte Marie,-2.69,46.49,-84.36,63,90,7.7
Moose Factory,-13.0,51.26,-80.61,78,90,5.7
Ussuriysk,-8.0,43.8,131.95,78,75,3.0
Belyy Yar,-18.0,53.6,91.39,84,90,0.97
Puerto Penasco,21.67,31.32,-113.53,26,31,7.15
Kawalu,22.82,-7.38,108.21,85,72,0.85
Chiang Rai,16.0,19.9,99.84,100,0,0.9
Taoudenni,11.87,22.68,-3.98,17,43,3.22
Constitucion,22.0,23.99,-104.67,8,75,2.6
Matay,8.47,28.42,30.79,60,0,4.56
Progreso,23.82,-34.68,-56.22,49,75,3.1
Deneysville,17.76,-26.89,28.1,80,100,5.02
Kalanguy,-18.81,51.01,116.52,85,3,1.17
Tianmen,4.3,30.65,113.16,86,100,3.58
Yerofey Pavlovich,-26.01,53.97,121.97,95,0,0.87
Vielsalm,2.43,50.29,5.92,93,75,6.2
Sembakung,25.52,3.82,117.25,84,93,1.44
Changtu,-14.96,42.78,124.11,95,100,2.73
Alyangula,31.0,-13.85,136.42,74,40,1.5
Zorritos,32.0,-3.68,-80.68,33,75,2.1
Grand Gaube,25.0,-20.01,57.66,100,40,1.46
Khandyga,-18.24,62.65,135.58,95,100,2.1
Okhotsk,-22.56,59.36,143.24,78,1,5.88
Jalu,9.09,29.03,21.55,69,1,7.34
Cap Malheureux,25.0,-19.98,57.61,100,40,1.46
Wenling,17.81,28.38,121.38,95,84,4.29
Wewak,29.19,-3.55,143.63,68,98,1.04
Ternate,24.92,14.29,120.72,74,40,2.1
Motala,17.63,20.68,76.21,68,20,3.07
Usinsk,-13.3,66.0,57.56,94,100,7.32
Garchitorena,26.53,13.88,123.7,83,97,9.31
Anan,6.48,33.91,134.64,75,90,1.5
Ust-Maya,-19.39,60.42,134.54,99,100,0.94
Gueret,2.14,46.17,1.87,100,90,2.77
Nabire,26.77,-3.36,135.5,92,74,0.42
Visnes,6.96,59.36,5.22,93,75,7.7
Zhob,3.19,31.34,69.45,91,75,1.36
Syedove,3.84,47.08,38.16,89,100,4.92
Kadnikov,-5.14,59.5,40.34,95,100,3.08
Pangnirtung,-33.0,66.15,-65.72,44,90,2.6
Oleksandrivka,-2.84,48.97,32.24,85,18,2.8
Kununurra,27.0,-15.77,128.74,88,75,1.5
Sfantu Gheorghe,-2.5,44.65,26.83,85,3,1.5
Hannibal,4.23,39.71,-91.36,44,40,2.28
Alirajpur,15.64,22.3,74.35,48,8,4.38
Kasongo,21.33,-4.43,26.67,96,79,0.6
Mnogovershinnyy,-14.32,53.94,139.92,71,10,2.62
Galle,18.64,10.08,-12.83,60,21,1.19
Dandong,-0.75,40.12,124.37,76,100,6.21
Huntington,3.82,40.87,-73.43,52,1,2.1
